[
  {
    "id": "hospital-001",
    "name": "24시 반려동물병원",
    "address": "서울 강남구 테헤란로 152",
    "roadAddress": "서울 강남구 테헤란로 152",
    "coordinates": { "lat": 37.5048, "lng": 127.0454 },
    "phone": "02-1234-5678",
    "businessStatus": "정상",
    "category": "동물병원"
  },
  {
    "id": "hospital-002",
    "name": "서울동물메디컬센터",
    "address": "서울 서초구 서초대로 396",
    "roadAddress": "서울 서초구 서초대로 396",
    "coordinates": { "lat": 37.4845, "lng": 127.0114 },
    "phone": "02-2345-6789",
    "businessStatus": "정상",
    "category": "동물병원"
  },
  {
    "id": "hospital-003",
    "name": "강서동물병원",
    "address": "서울 강서구 화곡로 175",
    "roadAddress": "서울 강서구 화곡로 175",
    "coordinates": { "lat": 37.5423, "lng": 126.8473 },
    "phone": "02-3456-7890",
    "businessStatus": "정상",
    "category": "동물병원"
  },
  {
    "id": "hospital-004",
    "name": "마포 펫케어 동물병원",
    "address": "서울 마포구 월드컵북로 396",
    "roadAddress": "서울 마포구 월드컵북로 396",
    "coordinates": { "lat": 37.5591, "lng": 126.9226 },
    "phone": "02-4567-8901",
    "businessStatus": "정상",
    "category": "동물병원"
  },
  {
    "id": "hospital-005",
    "name": "종로 반려동물클리닉",
    "address": "서울 종로구 종로 19",
    "roadAddress": "서울 종로구 종로 19",
    "coordinates": { "lat": 37.5718, "lng": 126.9857 },
    "phone": "02-5678-9012",
    "businessStatus": "정상",
    "category": "동물병원"
  },
  {
    "id": "hospital-006",
    "name": "송파 24시 동물의료센터",
    "address": "서울 송파구 올림픽로 269",
    "roadAddress": "서울 송파구 올림픽로 269",
    "coordinates": { "lat": 37.5146, "lng": 127.1058 },
    "phone": "02-6789-0123",
    "businessStatus": "정상",
    "category": "동물병원"
  },
  {
    "id": "hospital-007",
    "name": "노원 펫전문병원",
    "address": "서울 노원구 노원로 396",
    "roadAddress": "서울 노원구 노원로 396",
    "coordinates": { "lat": 37.6543, "lng": 127.0612 },
    "phone": "02-7890-1234",
    "businessStatus": "정상",
    "category": "동물병원"
  },
  {
    "id": "hospital-008",
    "name": "강북동물병원",
    "address": "서울 강북구 도봉로 396",
    "roadAddress": "서울 강북구 도봉로 396",
    "coordinates": { "lat": 37.6396, "lng": 127.0258 },
    "phone": "02-8901-2345",
    "businessStatus": "정상",
    "category": "동물병원"
  },
  {
    "id": "hospital-009",
    "name": "동작 반려동물병원",
    "address": "서울 동작구 동작대로 89",
    "roadAddress": "서울 동작구 동작대로 89",
    "coordinates": { "lat": 37.4989, "lng": 126.9519 },
    "phone": "02-9012-3456",
    "businessStatus": "정상",
    "category": "동물병원"
  },
  {
    "id": "hospital-010",
    "name": "중랑 펫클리닉",
    "address": "서울 중랑구 망우로 396",
    "roadAddress": "서울 중랑구 망우로 396",
    "coordinates": { "lat": 37.6063, "lng": 127.0925 },
    "phone": "02-0123-4567",
    "businessStatus": "정상",
    "category": "동물병원"
  },
  {
    "id": "hospital-011",
    "name": "수원 동물병원",
    "address": "경기 수원시 팔달구 중부대로 223",
    "roadAddress": "경기 수원시 팔달구 중부대로 223",
    "coordinates": { "lat": 37.2661, "lng": 127.0016 },
    "phone": "031-1234-5678",
    "businessStatus": "정상",
    "category": "동물병원"
  },
  {
    "id": "hospital-012",
    "name": "성남 24시 동물의료센터",
    "address": "경기 성남시 분당구 판교역로 235",
    "roadAddress": "경기 성남시 분당구 판교역로 235",
    "coordinates": { "lat": 37.3952, "lng": 127.1112 },
    "phone": "031-2345-6789",
    "businessStatus": "정상",
    "category": "동물병원"
  },
  {
    "id": "hospital-013",
    "name": "용인 반려동물병원",
    "address": "경기 용인시 수지구 죽전로 152",
    "roadAddress": "경기 용인시 수지구 죽전로 152",
    "coordinates": { "lat": 37.3236, "lng": 127.1088 },
    "phone": "031-3456-7890",
    "businessStatus": "정상",
    "category": "동물병원"
  },
  {
    "id": "hospital-014",
    "name": "부천 펫케어센터",
    "address": "경기 부천시 원미구 길주로 210",
    "roadAddress": "경기 부천시 원미구 길주로 210",
    "coordinates": { "lat": 37.5046, "lng": 126.7832 },
    "phone": "032-1234-5678",
    "businessStatus": "정상",
    "category": "동물병원"
  },
  {
    "id": "hospital-015",
    "name": "안양 동물병원",
    "address": "경기 안양시 만안구 안양로 223",
    "roadAddress": "경기 안양시 만안구 안양로 223",
    "coordinates": { "lat": 37.3944, "lng": 126.9275 },
    "phone": "031-4567-8901",
    "businessStatus": "정상",
    "category": "동물병원"
  },
  {
    "id": "hospital-016",
    "name": "인천 송도 동물병원",
    "address": "인천 연수구 센트럴로 263",
    "roadAddress": "인천 연수구 센트럴로 263",
    "coordinates": { "lat": 37.3895, "lng": 126.6399 },
    "phone": "032-2345-6789",
    "businessStatus": "정상",
    "category": "동물병원"
  },
  {
    "id": "hospital-017",
    "name": "부산 해운대 동물병원",
    "address": "부산 해운대구 해운대로 452",
    "roadAddress": "부산 해운대구 해운대로 452",
    "coordinates": { "lat": 35.1588, "lng": 129.1603 },
    "phone": "051-1234-5678",
    "businessStatus": "정상",
    "category": "동물병원"
  },
  {
    "id": "hospital-018",
    "name": "대구 반려동물병원",
    "address": "대구 중구 동성로 45",
    "roadAddress": "대구 중구 동성로 45",
    "coordinates": { "lat": 35.8693, "lng": 128.5955 },
    "phone": "053-1234-5678",
    "businessStatus": "정상",
    "category": "동물병원"
  },
  {
    "id": "hospital-019",
    "name": "광주 펫클리닉",
    "address": "광주 서구 죽봉대로 98",
    "roadAddress": "광주 서구 죽봉대로 98",
    "coordinates": { "lat": 35.1557, "lng": 126.8895 },
    "phone": "062-1234-5678",
    "businessStatus": "정상",
    "category": "동물병원"
  },
  {
    "id": "hospital-020",
    "name": "대전 24시 동물병원",
    "address": "대전 서구 둔산로 117",
    "roadAddress": "대전 서구 둔산로 117",
    "coordinates": { "lat": 36.3514, "lng": 127.3779 },
    "phone": "042-1234-5678",
    "businessStatus": "정상",
    "category": "동물병원"
  }
]
